City_ID,City,Country,Max Temp,Current Description,Lat,Lng,Hotel Name
0,Surat,IN,80.58,haze,21.1667,72.8333,HOTEL RUCHIRAJ
2,Rikitea,PF,76.57,clear sky,-23.1203,-134.9692,People ThankYou
4,Avarua,CK,77.05,scattered clouds,-21.2078,-159.775,Paradise Inn
5,Srandakan,ID,83.89,overcast clouds,-7.9386,110.2506,Puri Brata
9,Butaritari,KI,81.09,light rain,3.0707,172.7902,Isles Sunset Lodge
17,Hobart,AU,83.01,few clouds,-42.8794,147.3294,Mantra on Collins Hobart
19,Tarakan,ID,87.3,few clouds,3.3,117.6333,RedDoorz Syariah near Taman Berlabuh Tarakan
30,Kapaa,US,80.58,light rain,22.0752,-159.319,Sheraton Kauai Coconut Beach Resort
32,Meulaboh,ID,79.29,overcast clouds,4.1363,96.1285,Kost Pria
38,Atuona,PF,78.91,clear sky,-9.8,-139.0333,Villa Enata
42,Flinders,AU,76.28,light rain,-34.5833,150.8552,Shellharbour Resort & Conference Centre
47,Vao,NC,76.77,clear sky,-22.6667,167.4833,Hotel Kou-Bugny
53,Mabay,PH,83.41,moderate rain,6.0577,124.4666,Bautista Lodging House
54,Sibu,MY,88.11,few clouds,2.3,111.8167,RH HOTEL (4 Star)
56,Carnarvon,AU,78.87,clear sky,-24.8667,113.6333,Hospitality Carnarvon
58,Batemans Bay,AU,80.2,few clouds,-35.7167,150.1833,Batemans Bay Marina Resort
66,Airai,TL,75.81,broken clouds,-8.9266,125.4092,Juvinal Martin
68,Bathsheba,BB,79.41,scattered clouds,13.2167,-59.5167,Atlantis Hotel
70,Bengkulu,ID,78.89,overcast clouds,-3.8004,102.2655,Grage Hotel Bengkulu
73,Mogadishu,SO,78.67,clear sky,2.0371,45.3438,Hotel Juba
86,Atambua,ID,86.07,broken clouds,-9.1061,124.8925,Pastori 1 Jemaat Polycarpus
93,Puri,IN,75.38,scattered clouds,19.8,85.85,OYO 1577 Hotel Shree Hari Grand
96,Hithadhoo,MV,81.5,scattered clouds,-0.6,73.0833,Scoop Guest House
98,Warrnambool,AU,83.8,clear sky,-38.3833,142.4833,Lady Bay Resort
109,Georgetown,MY,84.88,few clouds,5.4112,100.3354,Cititel Penang
110,Kribi,CM,77.97,moderate rain,2.95,9.9167,La Grace Hôtel
119,Buala,SB,84.16,light rain,-8.145,159.5921,Maringe Lagoon Lodge
125,Soc Trang,VN,75.16,overcast clouds,9.6033,105.98,Phu Quy Hotel
126,Inhambane,MZ,76.98,broken clouds,-23.865,35.3833,Oceano
133,Victoria,HK,78.24,clear sky,22.2855,114.1577,Mini Hotel Central
136,Ambon,ID,87.94,light rain,-3.6954,128.1814,Swiss-Belhotel Ambon
137,Maragogi,BR,77.31,overcast clouds,-9.0122,-35.2225,Salinas do Maragogi All Inclusive Resort
139,Saint-Pierre,RE,82.56,clear sky,-21.3393,55.4781,Lindsey Hôtel
142,Danshui,CN,77.94,clear sky,22.7984,114.4672,Grand Skylight International Hotel Huizhou
143,Kahului,US,75.85,scattered clouds,20.8947,-156.47,Maui Seaside Hotel
147,Port Lincoln,AU,81.23,overcast clouds,-34.7333,135.8667,Port Lincoln Hotel
148,Sabya,SA,76.62,clear sky,17.1495,42.6254,Aseel Hotel Apartment
151,Vaini,TO,82.56,few clouds,-21.2,-175.2,Keleti Beach Resort
154,San Policarpo,PH,84.56,overcast clouds,12.1791,125.5072,Agapita M. Nicart
158,Ishikawa,JP,79.12,scattered clouds,26.4233,127.8214,Sheraton Okinawa Sunmarina Resort
160,Saint-Philippe,RE,82.47,scattered clouds,-21.3585,55.7679,"Chambres d'hôte ""La Trinité"""
163,Anloga,GH,75.42,broken clouds,5.7947,0.8973,Pin Drop Hotel
167,Pochutla,MX,76.82,clear sky,15.7432,-96.4661,Hotel Posada San Jose
173,New Norfolk,AU,82.65,clear sky,-42.7826,147.0587,The Shingles Riverside Cottages
179,Caravelas,BR,75.09,overcast clouds,-17.7125,-39.2481,Pousada dos Navegantes
180,Vila Velha,BR,78.75,few clouds,-20.3297,-40.2925,Quality Suites Vila Velha
181,Souillac,MU,83.35,few clouds,-20.5167,57.5167,Shanti Maurice Resort & Spa
186,Cabedelo,BR,79.47,broken clouds,-6.9811,-34.8339,Hotel Pigalle
192,Eyl,SO,79.3,few clouds,7.9803,49.8164,Amiin Hotel
195,Jati,PK,78.4,few clouds,24.3539,68.2671,Cafe Lala Rehan Restaurant
198,Piacabucu,BR,78.67,overcast clouds,-10.4056,-36.4344,Piaçabuçu News
200,Bambous Virieux,MU,83.21,few clouds,-20.3428,57.7575,Casa Tia Villa
201,Belmonte,BR,77.5,broken clouds,-15.8631,-38.8828,Pousada Monte Carmelo O Pão
202,Kavieng,PG,84.94,overcast clouds,-2.5744,150.7967,Nusa Island Retreat
205,Coruripe,BR,78.82,overcast clouds,-10.1256,-36.1756,Pousada e Hotel Litoral Sul
210,Mahebourg,MU,83.25,few clouds,-20.4081,57.7,Shandrani Beachcomber Resort & Spa
223,Malakal,SS,81.18,scattered clouds,9.5334,31.6605,Nile Palace Hotel
237,Richards Bay,ZA,76.1,overcast clouds,-28.783,32.0377,BON Hotel Waterfront Richards Bay
240,Broken Hill,AU,82.11,scattered clouds,-31.95,141.4333,Royal Exchange Hotel
241,Namatanai,PG,85.03,overcast clouds,-3.6667,152.4333,Seagulls Inn Namatani
242,Lorengau,PG,83.93,overcast clouds,-2.0226,147.2712,Lorengau Harbourside Hotel
244,Isangel,VU,86.11,broken clouds,-19.55,169.2667,Tanna Lodge
247,Cap Malheureux,MU,83.46,clear sky,-19.9842,57.6142,Pereybere Hotel & Spa
250,Luganville,VU,83.35,moderate rain,-15.5333,167.1667,The Espiritu Hotel
263,Demak,ID,85.96,overcast clouds,-6.8909,110.6396,Inayah Kost
265,Hobyo,SO,79.79,clear sky,5.3505,48.5268,Halane Hotel and Restaurent
267,Tual,ID,84.51,overcast clouds,-5.6667,132.75,Grand Vilia Hotel
275,Geraldton,AU,79.21,clear sky,-28.7667,114.6,Broadwater Mariner Resort
278,Tamugan,PH,85.44,broken clouds,7.2308,125.3764,Heavenly Farms
279,Keti Bandar,PK,78.4,scattered clouds,24.1447,67.4497,Haji laloo memon house
280,Cockburn Town,TC,79.25,overcast clouds,21.4612,-71.1419,Osprey Beach Hotel
284,Dingle,PH,87.48,overcast clouds,10.9995,122.6711,SEGAYA PROPERTY
292,Luanda,AO,78.8,broken clouds,-8.8368,13.2343,Hotel Fórum
295,Sambava,MG,80.51,scattered clouds,-14.2667,50.1667,Melrose
296,Kualakapuas,ID,84.36,overcast clouds,-3.0091,114.3876,Guest House Izonk
298,Port Blair,IN,84.88,broken clouds,11.6667,92.75,"Welcomhotel By ITC Hotels, Bay Island, Port Blair"
300,Saint-Leu,RE,81.95,clear sky,-21.15,55.2833,La Caz Oceane
302,Sao Sebastiao,BR,75.38,overcast clouds,-23.76,-45.4097,Hotel Recanto dos Pássaros
306,Bambanglipuro,ID,83.84,overcast clouds,-7.95,110.2833,Puri Brata
310,Aswan,EG,75.11,few clouds,24.0934,32.907,Nuba Nile
317,Takoradi,GH,78.4,moderate rain,4.8845,-1.7554,Raybow International Hotel
321,Sur,OM,76.42,clear sky,22.5667,59.5289,Sur Plaza Hotel
322,Kefamenanu,ID,89.31,broken clouds,-9.4467,124.4781,Sokowindo Losmen
330,Tabuk,PH,81.34,broken clouds,17.4189,121.4443,Golden Berries Hotel and Convention
332,Gigmoto,PH,85.33,overcast clouds,13.7796,124.39,Cj's Travellers Inn
345,Sinnamary,GF,77.74,broken clouds,5.3833,-52.95,ALETHEIA Appartement Sinnamary
350,Quatre Cocos,MU,83.08,few clouds,-20.2078,57.7625,Sunrise Attitude Hotel
352,Acapulco,MX,77.05,clear sky,16.8634,-99.8901,HS Hotsson Smart Acapulco
358,Bubaque,GW,82.36,broken clouds,11.2833,-15.8333,"Casa Dora, Bubaque"
369,Along,IN,75.34,broken clouds,28.1667,94.7667,Hotel West
376,Dwarka,IN,79.75,overcast clouds,22.2394,68.9678,Hotel Narayan Avezika Comfort
380,Cayenne,GF,75.24,few clouds,4.9333,-52.3333,Hôtel Le Dronmi
381,La Palma,US,75.49,clear sky,33.8464,-118.0467,La Quinta Inn & Suites by Wyndham Buena Park
390,Villa Bruzual,VE,75.67,scattered clouds,9.3328,-69.1208,hotel italia
391,Makakilo City,US,77.32,clear sky,21.3469,-158.0858,Marriott's Ko Olina Beach Club
393,Iquitos,PE,75.24,overcast clouds,-3.7481,-73.2472,Casa Morey Hotel & Restaurant
394,Hambantota,LK,84.54,few clouds,6.1241,81.1185,Bungalow 63
395,Tezu,IN,78.78,broken clouds,27.9167,96.1667,Circuit House
398,Padang,ID,77.05,light rain,-0.9492,100.3543,Mercure Padang
406,Touros,BR,79.7,broken clouds,-5.1989,-35.4608,INN NEW HORIZON
411,Salalah,OM,77.09,clear sky,17.0151,54.0924,"HAMDAN PLAZA HOTEL SALALAH, an HTG Hotel"
414,Mitsamiouli,KM,82.69,light rain,-11.3847,43.2844,Foyer ADM
422,Cukai,MY,87.94,broken clouds,4.25,103.4167,OYO 90038 Dalyla Inn Chalet
423,Luwuk,ID,86.72,light rain,-0.9516,122.7875,Hotel Santika Luwuk
424,Bandarbeyla,SO,79.29,clear sky,9.4942,50.8122,JABIR HOTEL
425,Cilegon,ID,85.89,light rain,-6.0174,106.0538,Amaris Hotel Cilegon
429,Takaungu,KE,79.29,moderate rain,-3.6837,39.8566,Takaungu House
431,Sumbe,AO,76.75,light rain,-11.2061,13.8437,Hotel Ritz Sumbe
433,Thoen,TH,81.55,broken clouds,17.6129,99.2161,Nakornthoen Hotel
443,Le Port,RE,84.16,clear sky,-20.9373,55.2919,KORBEY D'OR OUEST
444,Ende,ID,85.12,overcast clouds,-8.8432,121.6623,Dwi Putra Hotel - Ende
446,Macau,MO,76.93,clear sky,22.2006,113.5461,Grand Emperor Hotel
451,Road Town,VG,78.89,few clouds,18.4167,-64.6167,"ZINGARA 76ft Catamaran, full crew-all included"
452,Puerto Escondido,MX,77.83,clear sky,15.85,-97.0667,Aldea del Bazar Hotel and Spa
458,Alofi,NU,80.49,few clouds,-19.0595,-169.9187,Taloa Heights
467,Bairiki,KI,86.0,scattered clouds,1.3292,172.9752,Tarawa Boutique Hotel
468,Saint-Georges,GD,78.48,few clouds,12.0564,-61.7485,Radisson Grenada Beach Resort
474,Port-Gentil,GA,78.93,moderate rain,-0.7193,8.7815,Fengshui Residence
483,Karaton,ID,87.89,heavy intensity rain,-6.3424,106.1045,Parkir Mobil Wisata CAS Water Park
488,Nagapattinam,IN,82.29,overcast clouds,10.7667,79.8333,Sathya Lodge
490,Todos Santos,MX,77.0,overcast clouds,23.45,-110.2167,Hotel California Todos Santos
495,Kadhan,PK,80.82,scattered clouds,24.481,68.9859,ڳوٺ چوڌري جلال الدين جٽ
497,Salinopolis,BR,79.48,broken clouds,-0.6136,-47.3561,Salinas Park Resort Maçarico AP101
501,Thanyaburi,TH,83.91,few clouds,14.0211,100.7343,Hotel RIDE 'n Lazy @ Thai Wake Park
502,Pringsewu,ID,82.54,overcast clouds,-5.3582,104.9744,Urban Style by Front One
506,Gushikawa,JP,78.39,scattered clouds,26.3544,127.8686,Kirari Guest House
513,Samarai,PG,85.53,clear sky,-10.6167,150.6667,Nuli Sapi
515,Kieta,PG,83.62,light rain,-6.2167,155.6333,Uruna Bay Retreat
516,The Valley,AI,80.46,clear sky,18.217,-63.0578,CeBlue Villas & Beach Resort
528,Panama City,PA,82.06,overcast clouds,8.9936,-79.5197,Riande Urban Hotel
529,Tura,IN,76.53,broken clouds,25.5198,90.2201,Hotel RIKMAN Continental
531,Noumea,NC,86.0,broken clouds,-22.2763,166.4572,Hôtel Le Lagon
536,Guanica,PR,79.92,scattered clouds,17.9716,-66.908,Copamarina Beach Resort & Spa
538,Ahuimanu,US,78.51,scattered clouds,21.4447,-157.8378,Paradise Bay Resort
543,Marawi,PH,76.64,broken clouds,7.9986,124.2928,Derogongan Residence
547,Grand Gaube,MU,82.38,clear sky,-20.0064,57.6608,Veranda Paul et Virginie Hotel & Spa
554,Katubao,PH,84.18,broken clouds,5.8892,124.8294,IML Ecopark
560,Angoche,MZ,80.4,clear sky,-16.2325,39.9086,Guest House HESADA
562,San Andres,CO,82.42,broken clouds,12.5847,-81.7006,Hotel Arena Blanca
565,Sorong,ID,84.11,moderate rain,-0.8833,131.25,Waigo Splash Hotel
570,Codrington,AU,76.57,few clouds,-38.2667,141.9667,Codrington Gardens Bed And Breakfast
575,Monrovia,LR,78.51,light rain,6.3005,-10.7969,Sunset Inn
577,Kassala,SD,78.39,clear sky,15.451,36.4,Amassi Hotel Gash
579,Itacoatiara,BR,76.42,overcast clouds,-3.1431,-58.4442,BBB Rooms Centro Itacoatiara AM
580,Sabang,ID,76.68,moderate rain,5.8933,95.3214,Hotel Citra
588,Bac Lieu,VN,81.5,moderate rain,9.285,105.7244,Khách sạn Sài Gòn Bạc Liêu
589,Keningau,MY,80.74,overcast clouds,5.3378,116.1602,Sabindo Hotel
590,Sompeta,IN,77.2,scattered clouds,18.9333,84.6,Netaji's Home
591,Oistins,BB,78.89,scattered clouds,13.0667,-59.5333,Butterfly Beach Hotel
594,Honiara,SB,85.59,heavy intensity rain,-9.4333,159.95,Heritage Park Hotel
597,Wanning,CN,78.78,scattered clouds,18.8003,110.3967,Paradise Hotel
599,Lakes Entrance,AU,83.57,clear sky,-37.8811,147.981,The Esplanade Resort & Spa
608,Puntarenas,CR,80.53,overcast clouds,9.9763,-84.8384,Michael's Surfside Hotel
611,Trairi,BR,79.9,scattered clouds,-3.2778,-39.2689,janelas do mar
623,Xuddur,SO,75.49,scattered clouds,4.1213,43.8894,Banjanay Hotel
628,Tamandare,BR,77.77,overcast clouds,-8.7597,-35.1047,Pousada 100 Passos
632,Nang Rong,TH,79.21,overcast clouds,14.6377,102.7914,Phanomrungpuri Boutique Hotels & Resorts
645,Mont-Dore,NC,86.0,scattered clouds,-22.2833,166.5833,GIte
646,Faanui,PF,80.58,moderate rain,-16.4833,-151.75,Bora-Bora Pearl Beach Resort & Spa
647,Moroni,KM,82.4,light rain,-11.7022,43.2551,Hotel les Arcades
650,Kattivakkam,IN,86.09,broken clouds,13.2167,80.3167,Euronova Freezer
669,Martapura,ID,86.09,scattered clouds,-3.4167,114.85,Montana Hotel Syariah
677,Mamallapuram,IN,86.05,broken clouds,12.6264,80.1722,Radisson Blu Resort Temple Bay Mamallapuram
678,Kilindoni,TZ,80.2,moderate rain,-7.9139,39.6668,Bustani B&B
679,Hinundayan,PH,83.35,overcast clouds,10.3523,125.2506,Tolero's lodge
681,Pontal Do Parana,BR,80.26,overcast clouds,-25.6533,-48.5128,Eco Hostel Residencial Bananeiras
682,Anito,PH,85.03,overcast clouds,12.4497,125.2886,FELIPA LAODENIO PROPERTY
684,Chiang Mai,TH,86.72,few clouds,18.75,99.0,"Holiday Inn Chiangmai, an IHG Hotel"
